cat,lat,lon,title,description
camping,56.2274,10.1651,Aarhus Camping,"http://www.aarhuscamping.dk/en/ 
 +45 86 23 11 33"
camping,56.1097,10.2335,Blommehaven Camping,"http://www.camping-blommehaven.dk/ 
 +45 86 27 02 07"
camping,44.31313,-68.21303,Blackwoods Campground,"http://www.nps.gov/acad/planyourvisit/blackwoodscampground.htm 
  "
camping,44.23861,-68.30497,Seawall Campground,"http://www.nps.gov/acad/planyourvisit/seawallcampground.htm 
  "
camping,52.538,-8.793,Adare Camping and Caravan Park,"http://www.adarecamping.com/ 
 +353 61 395 376"
camping,44.563666,-123.153514,Albany/Corvallis KOA,"http://koa.com/campgrounds/albany/ 
 +1 541-967-8521"
camping,35.224673,-101.723966,Amarillo KOA,"http://koa.com/campgrounds/amarillo/ 
  "
camping,52.3127,4.9913,Gaasper Camping Amsterdam,"http://www.gaaspercamping.nl/en/camping.html 
  "
camping,33.401419,-111.530307,Mesa / Apache Junction KOA,"http://koa.com/campgrounds/mesa/ 
 +1 480-982-4015"
camping,38.7773,-109.5888,Devils Garden Campground,"https://www.nps.gov/arch/planyourvisit/camping.htm 
  "
camping,45.9325729,10.8932497,Zoo Camping,"http://www.campingzoo.it/ 
 +39 0464 516232"
camping,58.427142,8.7284738,Nidelv Camping,"https://nidelvcamping.no/ 
 +47 911 81 327"
camping,52.0074,5.8714,Camping Warnsborn,"http://www.campingwarnsborn.nl 
 +31 264 42 34 69"
camping,43.78724,142.48866,Asahikawa Mongol camping ground,"http://www.mongoru-mura.com 
 +81 166-37-1113"
camping,38.1051,23.8134,Dionissotis Camping,"http://www.campingdionissotis.gr 
 +30 210 8001496, +30 6977-261615"
camping,38.0999,23.7907,Nea Kifissia Camping,"http://www.camping-neakifissia.gr/ 
 +30 210 8075579"
camping,43.95310204393943,4.799374084977899,Auberge-Camping Bagatelle,"http://www.campingbagatelle.com/ 
  "
camping,-1.39261,-78.42496,Illuchi Camping,"https://m.facebook.com/illuchicamping/ 
 +593 99 982 6006"
camping,52.3389,7.2268,Camping Quendorfer See,"https://camping-schuettorf.de 
 +49 5923 902939"
camping,51.86759,10.04997,DCC Spa Camping Park,"http://www.camping-bad-gandersheim.de 
  "
camping,47.74631,12.89666,Staufeneck Camping,"https://www.camping-staufeneck.de/ 
 +49 8651 2134"
camping,47.703028,-122.509306,Fay Bainbridge Park,"https://biparks.org/fay-bainbridge-park-campground/ 
 +1 206 842-3931"
camping,61.20221,6.53173,Sjøtun Camping,"http://www.sjotun.com/ 
 +47 950 67 261"
camping,61.2159,6.56101,Veganeset Camping,"http://veganesetcamping.wordpress.com/ 
 +47 57 69 16 12"
camping,51.19333,-115.527434,Tunnel Mountain Campgrounds,"https://www.pc.gc.ca/eng/pn-np/ab/banff/activ/camping.aspx 
  "
camping,51.72,-9.449,Eagle Point Camping,"https://www.eaglepointcamping.com/ 
 +353 27 50630"
camping,44.43278,-68.2687,Bar Harbor Campground,"http://www.thebarharborcampground.com/ 
 +1 207 288-5185"
camping,44.41992,-68.33717,Mt Desert Narrows RV Resort & Campground,"  
 +1 207 288-4782"
camping,54.547,-1.962,Barnard Castle Camp Site,"https://www.campingandcaravanningclub.co.uk/ 
 +44 1833 630228"
camping,38.551082,-0.096702,Camping Arena Blanca,"https://www.campingarenablanca.com/en/ 
 +34 965 861 889"
camping,38.5663,-0.09629,Camping Almafá,"http://en.campingalmafra.es/ 
 +34 965 889 075"
camping,38.5501,-0.09953,Camping El Racó,"http://www.campingraco.com/en/ 
 +34 965 868 552"
camping,38.55506,-0.09574,Camping Villamar,"https://www.campingvillamar.com/en/ 
 +34 966 811 255"
camping,38.54589,-0.10708,Camping Villasol,"https://www.camping-villasol.com/en/ 
 +34 965 850 422"
camping,38.5492222,-0.115147,Camping Armanello,"https://www.campingarmanello.com/en/ 
 +34 965 85 31 90"
camping,38.560245,-0.098524,Camping Benisol,"http://www.campingbenisol.com 
 +34965851673"
camping,39.567806,-78.361113,Cox Camping,"http://www.coxcamping.com/ 
 +1 304-258-2267 or +1 301-953-2676"
camping,51.8389,-0.6219,Town Farm Campsite,"http://www.townfarmcamping.co.uk 
 +44 7906 265435 (mobile)"
camping,51.7824,-0.6009,Norcott Campsite,"http://www.chilternscamping.co.uk/ 
 +44 7788 151022 (mobile)"
camping,29.2761,-103.3021,Chisos Basin Campground,"https://www.nps.gov/bibe/planyourvisit/basin_campground.htm 
  "
camping,29.1374,-103.5231,Cottonwood Campground,"https://www.nps.gov/bibe/planyourvisit/cottonwood_campground.htm 
  "
camping,29.1802,-102.9572,Rio Grande Village Campground,"https://www.nps.gov/bibe/planyourvisit/rgv_campground.htm 
  "
camping,36.76374,-84.54756,Alum Ford Campground,"http://www.nps.gov/biso/planyourvisit/alumfordcampground.htm 
  "
camping,36.67762,-84.51854,Blue Heron Campground,"http://www.nps.gov/biso/planyourvisit/blueheroncampground.htm 
 +1 606 376-2611"
camping,36.49218,-84.7012,Bandy Creek Campground,"http://www.nps.gov/biso/planyourvisit/bandycreekcampground.htm 
 +1 423 286-8368"
camping,35.99,-121.4979,Kirk creek campground,"http://www.recreation.gov/camping/kirk-creek-campground/r/campgroundDetails.do?contractCode=NRSO&parkId=71993 
  "
camping,36.2653,-121.8083,Riverside Campground & Cabins,"http://www.riversidecampground.com 
 +1 831-667-2414"
camping,46.361437,14.080532,Camping Bled,"http://www.camping-bled.com/ 
  "
camping,-33.615342,150.353276,Acacia Flat campground,"https://www.nationalparks.nsw.gov.au/camping-and-accommodation/campgrounds/acacia-flat-campground 
 +61 2 4787 8877"
camping,-33.798913,150.617603,Euroka Campground,"https://www.nationalparks.nsw.gov.au/camping-and-accommodation/campgrounds/euroka-campground 
 +61 2 9585 6831"
camping,-33.770994,150.463627,Ingar Campground,"https://www.nationalparks.nsw.gov.au/camping-and-accommodation/campgrounds/ingar-campground 
 +61 2 4787 8877"
camping,-33.768169,150.486154,Murphys Glen Campground,"https://www.nationalparks.nsw.gov.au/camping-and-accommodation/campgrounds/murphys-glen-campground 
 +61 2 9585 6831"
camping,-33.599381,150.344932,Perrys Lookdown Campground,"https://www.nationalparks.nsw.gov.au/camping-and-accommodation/campgrounds/perrys-lookdown-campground 
 +61 2 9585 6831"
camping,-34.079856,149.927174,Mount Werong Campground,"https://www.nationalparks.nsw.gov.au/camping-and-accommodation/campgrounds/mount-werong-campground 
 +61 2 6336 6200"
camping,55.56783,10.0855,Kyst Camping Bogense,"http://www.kystcamping.dk/ 
 +45 64811443"
camping,55.56148,10.08636,Bogense Strand Camping,"https://www.bogensecamping.dk/ 
 +45 64813508"
camping,51.5654,4.6958,Camping Liesbos,"http://www.camping-liesbos.nl 
 +31 76 514 35 14"
camping,47.50448,9.7134,Camping Mexico am Bodensee,"http://www.camping-mexico.at/ 
 +43 5574 73260"
camping,47.50313,9.70898,Camping Weiß,"http://www.campingweiss.at/ 
 +43 664 1325548"
camping,53.5324,8.5766,Reisemobil-Parkplatz Doppelschleuse,"http://www.bremerhaven.de/experience-the-sea/accommodations-camping-more/motor-homes-campers-tents/motor-homes/special-parking-area-for-mobile-homes-doppelschleuse.47985.html 
  "
camping,53.5268,8.5764,Reisemobil-Parkplatz Fischkai,"http://www.bremerhaven.de/experience-the-sea/accommodations-camping-more/motor-homes-campers-tents/motor-homes/special-parking-area-for-mobile-homes-fischkai.47984.html 
 +49 471 7 00 44 75"
camping,38.2389,-119.3254,Buckeye Campground,"http://www.fs.usda.gov/recarea/htnf/recreation/camping-cabins/recarea/?recid=65272&actid=29 
 +1-760-932-7070"
camping,38.1736,-119.3042,Craig's Campground,"http://www.recreation.gov/camping/crags-campground/r/campgroundDetails.do?contractCode=NRSO&parkId=70758 
 +1 760 932-7092"
camping,52.6894,1.4298,Salhouse Broad Camping,"http://www.salhousebroad.org.uk/camping.html 
 +44 1603 722775"
camping,51.207013,3.262979,Camping Memling,"http://www.campingmemling.be/ 
 +32 50 35 58 45"
camping,37.6381,-112.1679,North Campground,"https://www.nps.gov/brca/planyourvisit/northcampground.htm 
  "
camping,37.6229,-112.1728,Sunset Campground,"https://www.nps.gov/brca/planyourvisit/sunsetcampground.htm 
  "
camping,37.6682,-112.1596,Ruby's Campground,"http://www.brycecanyoncampgrounds.com/ 
  "
camping,54.19049,-2.09157,Buckden Camping and Pods,"https://buckdencamping.co.uk 
  "
camping,62.55135,7.70239,Åndalsnes Camping,"http://www.andalsnes-camping.com/ 
 +47 71 22 16 29"
camping,63.159479,14.673825,Östersund camping,"http://ostersundscamping.se/en/ 
 +46 63 14 46 15"
camping,60.26416667,18.37861111,Klackskärs camping,"http://www.klackskarscamping.se/ 
 +46 173-21 364"
camping,60.35333333,18.44638889,Gräsöbadens Camping,"http://www.grasobadenscamping.se/ 
 +46 173-331 90"
camping,53.9168387,14.2559838,"Camping nr 44 ""Relax""","http://www.camping-relax.com.pl/en/ 
 +48 91 321 39 12"
camping,41.89876,3.18558,Kim's Camping,"https://www.campingkims.com 
 +34 972 30 11 56"
camping,38.6452,0.0563,Camping Calp Mar,"http://www.campingcalpemar.com/en/ 
 +34 965 875 576"
camping,38.6447,0.0603,Camping Sol de Calpe Austral,"https://www.campingsoldecalpe.com/en 
 +34 900 103 787"
camping,-0.46491,-80.45575,Camping Iguana,"http://camping-iguana.com/ 
  "
camping,52.5617,4.6324,Camping Bakkum,"https://www.campingbakkum.com/ 
 +31 251 661 091"
camping,37.201987,-85.940852,Horse Cave KOA,"http://koa.com/campgrounds/horse-cave/ 
 +1 270-786-2819"
camping,37.13501,-86.03786,Rock Cabin Camping,"http://www.rockcabincamping.com/ 
 +1 270-773-4740"
camping,34.0142,-119.3678,Anacapa Island Campground,"https://www.recreation.gov/camping/anacapa-island/r/campgroundDetails.do?contractCode=NRSO&parkId=70984 
  "
camping,33.4798,-119.0291,Santa Barbara Island Campground,"https://www.recreation.gov/camping/santa-barbara-island/r/campgroundDetails.do?contractCode=NRSO&parkId=70982 
  "
camping,34.0406,-120.349,San Miguel Island Campground,"https://www.recreation.gov/camping/san-miguel-island/r/campgroundDetails.do?contractCode=NRSO&parkId=70983 
  "
camping,33.991,-120.0481,Santa Rosa Island Campground,"https://www.recreation.gov/camping/santa-rosa-island/r/campgroundDetails.do?contractCode=NRSO&parkId=70979 
  "
camping,34.0489,-119.5627,Santa Cruz Island Scorpion Canyon Campground,"https://www.recreation.gov/camping/santa-cruz-scorpion/r/campgroundDetails.do?contractCode=NRSO&parkId=70980 
  "
camping,34.0109,-119.6606,Santa Cruz Island Del Norte Backcountry Campground,"https://www.recreation.gov/camping/santa-cruz-del-norte-backcountry/r/campgroundDetails.do?contractCode=NRSO&parkId=70981 
  "
camping,48.43449,1.499245,Camping “Les Bords De L’Eure”,"http://www.auxbordsdeleure.com 
 +33 237 28 79 43"
camping,46.4667,7.1239,Camping - Au Berceau,"http://www.piscine-camping-restaurant.ch 
 +41 26 924 62 34"
camping,32.39225,117.04535,San Diego Metro KOA,"https://koa.com/campgrounds/san-diego/ 
 +1 800-562-9877"
camping,51.623,-8.877,Desert Camping,"http://deserthousecamping.ie/ 
 +353 23 883 3331"
camping,39.928,-75.734,Philadelphia West Chester KOA,"http://koa.com/campgrounds/philadelphia/ 
  "
camping,52.220386,-117.204602,Columbia Icefields campground,"http://www.pc.gc.ca/eng/pn-np/ab/jasper/activ/ete-summer/camping/info-camping.aspx#columbia 
  "
camping,52.21915,-117.176235,Wilcox Creek campground,"  
  "
camping,53.54,-9.27,"Cong Camping, Caravan & Glamping Park","https://www.congcamping.com/ 
 +353 94 954 6089"
camping,55.5803167,12.6292735,Copenhagen Camping,"http://www.copenhagencamping.dk/ 
 +45 32 94 20 07"
camping,55.70151,12.51341,Bellahøj Camping,"http://www.bellahoj-camping.dk/ukpladsen.htm 
 +45 38 10 11 50"
camping,55.746333,12.5866369,Camping Charlottenlund Fort,"http://www.campingcopenhagen.dk 
 +45 39 62 36 88"
camping,55.80934,12.529489,Nærum Camping,"http://www.camping-naerum.dk 
 +45 45 80 19 57"
camping,55.606905,12.379414,Tangloppen Camping,"http://www.tangloppen.fdmcamping.dk 
 +45 43 54 07 67"
camping,42.8672,-122.1656,Mazama Village Campground,"https://www.nps.gov/crla/planyourvisit/mazama_campground.htm 
  "
camping,43.4608,-113.559,Lava Flow Campground,"https://www.nps.gov/crmo/planyourvisit/camping.htm 
  "
camping,43.4728,-113.5669,Group Campground,"https://www.nps.gov/crmo/planyourvisit/camping.htm 
  "
camping,33.022932,-113.049556,Painted Rock Petroglyph Site,"http://www.blm.gov/az/st/en/prog/recreation/camping/dev_camps/painted_rock.html 
 +1 623-580-5500"
camping,30.93511,35.379709,Camping Neot,"http://campingneot.co.il/?lang=en 
 +972 52-8991147, +972 52-2456651"
camping,41.402061,22.246598,Rockland Camping,"https://www.campingmacedonia.com/ 
 +389 70 343 401"
camping,63.7316,-148.8945,Riley Creek,"https://www.nps.gov/dena/planyourvisit/campground-riley.htm 
  "
camping,63.7166,-149.2589,Savage River,"https://www.nps.gov/dena/planyourvisit/campground-savage.htm 
  "
camping,63.2978,-151.0527,Teklanika River,"https://www.nps.gov/dena/planyourvisit/campground-tek.htm 
  "
camping,63.6118,-149.5709,Igloo Creek,"https://www.nps.gov/dena/planyourvisit/campground-igloo.htm 
  "
camping,63.4574,-150.8612,Wonder Lake,"https://www.nps.gov/dena/planyourvisit/campground-wonder.htm 
  "
camping,38.8318,0.1398,Camping Tolosa,"http://www.campingtolosa.com/?idioma=2 
 +34 965 787 294"
camping,41.709994,-70.143837,Old Chatham Road RV Resort,"https://www.rvonthego.com/massachusetts/old-chatham-road-rv-campground/ 
 +1 508 385-3616"
camping,52.2508,6.1492000000000004,Camp Site De Worp,"http://www.stadscamping.eu 
 +31 570-613601"
camping,44.5816,-104.7066,Belle Fourche River Campground,"https://www.nps.gov/deto/planyourvisit/campgrounds.htm 
  "
camping,49.8662,6.165,Camping de la Sûre,"http://camping.diekirch.lu/en/start/ 
 +352 80 94 25"
camping,47.3212,5.0113,Camping Lac Kir,"http://www.camping-du-lac-dijon.com/ 
 +33 3 80 30 54 01"
camping,57.59748,-4.41996,Dingwall Camping and Caravanning Club Site,"http://www.campingandcaravanningclub.co.uk/campsites/uk/highlands/dingwall/dingwall 
 +44 1349 862236"
camping,40.42161,-109.24611,Green River Campground,"https://www.nps.gov/dino/planyourvisit/greenrivercampground.htm 
  "
camping,40.49602,-109.17623,Rainbow Park Campground,"http://www.nps.gov/dino/planyourvisit/rainbowparkcampground.htm 
  "
camping,40.4435,-109.25499,Split Mountain Group Campground,"https://www.nps.gov/dino/planyourvisit/splitmountaincampground.htm 
  "
camping,40.4477,-108.5137,Deerlodge Park Campground,"http://www.nps.gov/dino/planyourvisit/deerlodgecampground.htm 
  "
camping,40.52092,-108.99547,Echo Park Campground,"http://www.nps.gov/dino/planyourvisit/echoparkcampground.htm 
 +1 435 781-7759"
camping,40.7283,-108.88936,Gates of Lodore Campground,"http://www.nps.gov/dino/planyourvisit/gatesoflodorecampground.htm 
  "
camping,42.66198,18.07064,Camping Solitudo,"http://www.camping-adriatic.com/croatia/dubrovnik/camping/solitudo 
  "
camping,60.2352,19.5461,Käringsunds camping,"http://www.karingsundscamping.se 
 +358 18 383-09"
camping,54.153607,19.39367,Camping No61,"http://www.camping61.com.pl/index_en.html 
 +48 55 6418666"
camping,47.006,-120.5949,Ellensburg KOA Journey,"https://koa.com/campgrounds/ellensburg/ 
 +1 509 925-9313"
camping,36.587236,-6.240833,Camping Playa las Dunas,"https://www.lasdunascamping.com/ 
 +34 956 87 22 10"
camping,56.04434,12.60431,Helsingør Camping,"https://helsingorcamping.dk/en/ 
 +45 4928 4950"
camping,39.2138,-114.8554,Ely KOA,"https://koa.com/campgrounds/ely/ 
 +1 775-289-3413"
camping,49.6314752,10.947598,Camping-Club Rangau e.V.,"  
 +49 91 35 88 66"
camping,55.51278,8.38878,Esbjerg Camping,"http://esbjergcamping.dk/en/ 
 +45 75 15 88 22"
camping,60.239167,24.6575,Espoo Camping Oittaa,"http://www.suncamping.fi 
 +358 9 863 2585"
camping,60.619733,15.655181,Nordic Camping Lugnet,"https://www.nordiccamping.se/vara-anlaggningar/nordic-camping-lugnet/ 
 +46 771-101 200"
camping,55.427,8.389,Rødgaard Camping,"http://rodgaard-camping.dk/ 
 +45 75 16 33 11"
camping,51.264578,-0.770792,Runway's End Outdoor Centre,"http://www3.hants.gov.uk/runwaysend/runwaysend-camping.htm 
 +44 1252 344421"
camping,35.370429,-111.543602,Bonito Campground,"http://www.fs.usda.gov/recarea/coconino/recreation/camping-cabins/recarea/?recid=55072&actid=29 
 +1 928-526-0866"
camping,35.125981,-111.59839,Canyon Vista Campground,"http://www.fs.usda.gov/recarea/coconino/recreation/camping-cabins/recarea/?recid=54954&actid=29 
 +1 928-526-0866"
camping,35.3586,-111.6208,Lockett Meadow Campground,"http://www.fs.usda.gov/recarea/coconino/recreation/camping-cabins/recarea/?recid=55136&actid=29 
 +1 928-526-0866"
camping,35.01639,-111.84972,Fernow Cabin,"http://www.recreation.gov/camping/Fernow_Cabin_Az/r/campgroundDetails.do?contractCode=NRSO&parkId=75336&pstate=AZ 
 +1 928-526-0866"
camping,35.4222,-111.73789,Kendrick Cabin,"http://www.recreation.gov/camping/Kendrick_Cabin_Az/r/campgroundDetails.do?contractCode=NRSO&parkId=75333 
 +1 928-526-0866"
camping,35.234165,-111.576736,Flagstaff KOA,"http://koa.com/campgrounds/flagstaff/ 
 +1 928-526-9926"
camping,60.8634,7.1087,Flåm Camping og Vandrarheim,"http://www.flaam-camping.no/ 
 +47 57 63 21 21"
camping,37.902689,-86.025041,Camp Carlson Army Travel Camp,"https://knox.armymwr.com/programs/carlson-campgrounds 
 +1 502-624-4836"
camping,49.137778,10.873889,Zeltwiese Absberg camping,"https://www.zeltwiese-absberg.de/ 
 +49 157 52681335 (M-F 09:00-17:00)"
camping,56.00088,12.51578,Nyrup Camping,"http://www.nyrupcamping.dk/ 
 +45 4913 9103"
camping,57.4646,10.5276,Nordstrand Camping,"http://www.nordstrand-camping.dk/en/ 
 +45 9842 9350"
camping,43.831056,-70.066568,Recompence Shore Campground,"http://www.freeportcamping.com 
 +1 207-865-9307"
camping,47.99235,7.87339,Camping Hirzberg,"http://www.freiburg-camping.de/ 
 +49 761 35 054"
camping,47.98122,7.88205,Camping Moeslepark,"http://www.camping-freiburg.com 
 +49 761 76 79 333"
camping,38.97351,-0.15097,Camping l'Aventura Playa,"http://www.campinglaventuraplaya.com/ 
 +34 962 818 330"
camping,39.00416,-0.17862,Camping La Naranja,"http://campinglanaranja.com/?lang=en 
  "
camping,48.827857,-64.301521,Camping Baie de Gaspé,"http://www.campingbaiedegaspe.com 
 +1 418-892-5503"
camping,48.970904,-64.453804,Camping des Appalaches,"http://campingdesappalaches.com/en/ 
 +1 418-269-7775"
camping,48.789313,-64.404389,Camping Gaspé,"http://www.campinggaspe.ca/en/ 
 +1 418-368-4800"
camping,48.956616,-64.322835,Camping Griffon,"https://www.campinggriffon.com/en/ 
 +1 418-892-5938"
camping,67.1288,20.6719,Gällivare Camping,"http://www.gallivarecamping.se/?lang=en 
 +46 970-100 10"
camping,51.0465,3.6807,Camping Blaarmeersen,"http://www.blaarmersen.be 
 +32 9 266 81 60"
camping,44.292062,-105.51635,Green Tree's Crazy Woman Campground,"http://www.crazywomancampground.com/ 
 +1-307-682-3665"
camping,44.279704,-105.450033,High Plains Campground,"https://www.highplainscampground.com/ 
 +1-307-687-7339"
camping,58.4509,-135.896,Bartlett Cove Campground,"https://www.nps.gov/glba/planyourvisit/campground.htm 
  "
camping,48.525,-113.9836,Apgar,"http://home.nps.gov/applications/glac/cgstatus/camping_detail.cfm?cg=Apgar 
  "
camping,48.5478,-113.9853,Fish Creek,"http://home.nps.gov/applications/glac/cgstatus/camping_detail.cfm?cg=Fish%20Creek 
  "
camping,48.935797,-114.346127,Kintla Lake,"https://www.nps.gov/applications/glac/cgstatus/camping_detail.cfm?cg=Kintla%20Lake 
  "
camping,48.7967,-113.6773,Many Glacier,"http://home.nps.gov/applications/glac/cgstatus/camping_detail.cfm?cg=Many%20Glacier 
  "
camping,48.7508,-113.4469,St. Mary,"http://home.nps.gov/applications/glac/cgstatus/camping_detail.cfm?cg=St.%20Mary 
  "
camping,51.736,-9.561,Glengarriff Caravan & Camping Park,"https://glengarriff-caravan-camping-park.business.site/ 
 +353 27 63154"
camping,32.978631,35.807477,Keshet Yonatan hosting and camping,"http://www.keshet-yonatan.co.il/%D7%90%D7%95%D7%93%D7%95%D7%AA/ 
 +972 4-685-1100"
camping,51.297396,-116.951741,Golden Municipal Campground,"http://www.tourismgolden.com/accommodations/campgrounds/golden-municipal-campground-and-rv-park 
  "
camping,36.71588,-112.21447,Jacob Lake Campground,"http://www.recreation.gov/camping/jacob-lake-recreation-area/r/campgroundDetails.do?contractCode=NRSO&parkId=75417 
  "
camping,44.1059,-110.6711,Headwaters Campground and RV Park at Flagg Ranch,"http://www.gtlc.com/rv/headwaters-campground 
  "
camping,44.0041,-110.6884,Lizard Creek Campground,"http://www.signalmountainlodge.com/lodge-services/signal-mountain-camping 
  "
camping,43.9056,-110.6413,Colter Bay Campground,"http://www.gtlc.com/camping/colter-bay-campground 
  "
camping,43.8408,-110.6152,Signal Mountain Campground,"http://www.signalmountainlodge.com/lodge-services/signal-mountain-camping 
  "
camping,43.7541,-110.7205,Jenny Lake Campground,"http://www.gtlc.com/camping/jenny-lake-campground 
  "
camping,43.6163,-110.6669,Gros Ventre Campground,"http://www.gtlc.com/camping/gros-ventre-campground 
  "
camping,35.7502,-83.1114,Big Creek Campground,"https://www.nps.gov/grsm/planyourvisit/camping-at-big-creek.htm 
  "
camping,53.203719,6.5342460000000004,Camping Stadspark,"http://campingstadspark.nl/ 
 +31 50 5251624"
camping,49.5816758,-57.9149582,Gros Morne RV Campground,"http://www.grosmornervcampground.com/ 
 +1 709 458-3133 (in season)"
camping,56.95722,8.68793,Hanstholm Camping,"http://www.hanstholmcamping.com 
  "
camping,57.111208,8.668717,Hanstholm Camping,"http://www.hanstholm-camping.dk 
 +45 97 96 51 98"
camping,65.8582,24.1201,Norrskens Hotell & Camping,"http://www.norrskenscamping.se 
 +46 922 123 01"
camping,39.3243527,-77.7316714,Harpers Ferry Marina -boat ramp /river access,"http://www.campingharpersferry.com 
 +1 304 535-2663"
camping,68.7723,16.5786,Harstad Camping,"http://www.harstad-camping.no/?lang=en 
 +47 77 07 36 62"
camping,19.3432,-155.2736,Kulanaokuaiki,"https://www.nps.gov/havo/planyourvisit/kulanaokuaiki-campground.htm 
  "
camping,19.4253,-155.2953,Nāmakanipaio,"https://www.nps.gov/havo/planyourvisit/namakanipaio-campground.htm 
  "
camping,53.3777,-1.9302,Hayfield Campsite,"http://www.campingandcaravanningclub.co.uk/siteseekerlite/aspx/details.aspx?id=7130 
 +44 1663 745394"
camping,36.06359,-115.03373,Las Vegas KOA at Sam's Town,"https://koa.com/campgrounds/las-vegas/ 
  "
camping,55.9238,12.29554,Hillerød Camping,"http://hillerodcamping.dk/en/ 
 +45 4826 4854"
camping,62.2078,6.4749,Hjørundfjord Camping,"http://www.hjorundfjord-camping.no/index_eng.html 
 +47 70 04 00 16"
camping,56.636265,9.781492,Hobro City Camping Gattenborg,"https://www.hobrocamping.dk 
 +45 98523288"
camping,34.923216,-110.14343,Holbrook / Petrified Forest KOA,"http://koa.com/campgrounds/holbrook/ 
 +1 928-524-6689"
camping,52.942,1.1332,Foxhills Camping,"http://www.foxhillscamping.co.uk 
 +44 1263 588253 (between 09:00-18:00)"
camping,34.5244,-93.036,Gulpha Gorge Campground,"https://www.nps.gov/hosp/planyourvisit/campground.htm 
  "
camping,37.3833,-109.0708,Hovenweep Campground,"https://www.nps.gov/hove/planyourvisit/camping.htm 
  "
camping,55.99899,11.96786,Bokildegårds Camping,"http://www.bokildegaardscamping.com/ 
  "
camping,35.00852,25.821263,Camping Koutsounari,"http://www.camping-koutsounari.gr/ 
 +30 2842 061213"
camping,47.5934,-2.8447,Camping municipal Le Vieux Moulin,"http://www.mairie-ileauxmoines.fr/accueil/decouverte/camping_municipal 
 +33 2 97 26 30 68"
camping,-23.14015,-44.16913,Alfa Camping,"http://www.alfacamping.com.br/ 
 +55 24 3361 5745"
camping,-23.18926,-44.31879,Camping do Digão,"https://www.facebook.com/campingdodigaoaventureiro/ 
  "
camping,68.903,27.0715,Uruniemi camping,"http://www.uruniemi.fi 
 +358 50-371-8826"
camping,41.672,-86.9838,Dunewood Campground,"https://www.nps.gov/indu/planyourvisit/campgrounds.htm 
  "
camping,57.46508,-4.23868,Bught caravan and camping site,"http://www.invernesscaravanpark.com 
 +44 1463 236920"
camping,34.002,-116.0196,Belle Campground,"https://www.nps.gov/jotr/planyourvisit/belle-campground.htm 
  "
camping,34.0731,-116.3913,Black Rock Campground,"https://www.nps.gov/jotr/planyourvisit/black-rock-campground.htm 
  "
camping,33.745,-115.8127,Cottonwood Campground,"https://www.nps.gov/jotr/planyourvisit/cottonwood-campground.htm 
  "
camping,34.0173,-116.1626,Hidden Valley Campground,"https://www.nps.gov/jotr/planyourvisit/hidden-valley-campground.htm 
  "
camping,34.0949,-116.1594,Indian Cove Campground,"https://www.nps.gov/jotr/planyourvisit/indian-cove-campground.htm 
  "
camping,33.991933,-116.06238,Jumbo Rocks Campground,"https://www.nps.gov/jotr/planyourvisit/jumbo-rocks-campground.htm 
  "
camping,33.9831,-116.1542,Ryan Campground,"https://www.nps.gov/jotr/planyourvisit/ryan-campground.htm 
  "
camping,34.0002,-116.1203,Sheep Pass Group Campground,"https://www.nps.gov/jotr/planyourvisit/sheep-pass-group-campground.htm 
  "
camping,33.9857,-116.0167,White Tank Campground,"https://www.nps.gov/jotr/planyourvisit/white-tank-campground.htm 
  "
camping,18.44235,-64.75933,Ivans Stressfree Bar and Campground,"http://www.ivanscampground.com/ 
 +1-284-495-9358"
camping,36.461704,29.126597,Sea Valley Bungalows,"http://www.seavalleycamping.com 
 +90 252 642-12-36"
camping,36.463443,29.127627,Sultan Camp,"http://www.sultancamp.com 
 +90 252 642-12-38"
camping,55.73097,10.98719,Elverdams Camping,"http://xn--rsnsnaturcamping-wob53a.dk/ 
 +45 5950 9013"
camping,55.72885,11.11274,Saltbæk Camping,"http://www.kalundborg-camping.dk/ 
 +45 5950 2167"
camping,46.3051881,14.6112235,Kraljev Hrib Camping and Hostel,"http://www.kraljevhrib.si/index.php/en/camping-en 
 +386 41 816 477"
camping,50.63373,-115.10175,Boulton Creek Campground,"http://www.albertaparks.ca/peter-lougheed/information-facilities/camping/boulton-creek.aspx?id=st-camp:6739 
 +1-866-427-3582"
camping,54.93479,23.91781,Kaunas Camping,"http://www.kaunascamping.eu/ 
 +370 618 09 407"
camping,59.9395,20.8824,Sandvik guest harbour & camping,"http://www.sandvik.ax/en/Gästhamn 
 +358 457-342-9242"
camping,59.9395,20.8824,Sandvik guest harbour & camping,"http://www.sandvik.ax/en 
 +358 457-342-9242"
camping,65.8923,24.6284,Törmä Camping,"http://www1.keminmaa.fi/tormacamping/index_en.htm 
  "
camping,46.76574,17.25628,Camping Gärtnerhof,"https://www.campinggartnerhof.eu/english.html 
 +36 83 319-900"
camping,46.7986,17.20782,Camping Rosengarten,"http://campingrosengarten.hu/en 
 +36 30 347-1559"
camping,46.80801,17.21215,Panoráma Camping,"http://panoramacamping.com/ 
 +36 83 330-215"
camping,52.631338,-9.598265,Purecamping,"https://www.purecamping.ie 
 +353 65 905-7953"
camping,69.0473,20.8007,Kilpisjärvi Holiday Village & Camping,"https://www.kilpisjarvicamping.com/front-page.html 
 +358 40 778 9445"
camping,35.23504,-114.017055,Kingman KOA,"http://koa.com/campgrounds/kingman/ 
 +1 928-757-4397"
camping,35.065,-113.871,Wild Cow Springs Campground,"https://www.blm.gov/visit/wild-cow-springs-campground 
 +1 928-718-3700"
camping,48.310694,16.328117,Donaupark Camping Klosterneuburg,"http://www.campingklosterneuburg.at/ 
 +43 2243 25877"
camping,63.8565,23.1132,Kokkola Camping,"http://www.kokkola-camping.fi 
 +358 6 831-4006"
camping,48.403437,15.592536,ÖAMTC Donaupark Camping - Krems,"http://www.donauparkcamping-krems.at/ 
 +43 2732 84455"
camping,48.40342,15.59241,ÖAMTC Donaupark Camping Krems,"http://www.donauparkcamping-krems.at/ 
 +43 2732 84455"
camping,48.41826,15.6616,Camping Ettenauer,"http://www.ettenauerweine.com/camping.htm 
 +43 676 9129993, +43 664 1164808"
camping,58.1469963,8.0296256,Roligheden camping,"http://www.roligheden.no/camping/ 
 +47 38096722"
camping,51.41686,-116.177977,Lake Louise Tent Campground,"https://www.pc.gc.ca/en/pn-np/ab/banff/activ/camping/lltent 
  "
camping,27.851902,-81.586035,Lake Wales Campground,"http://www.lakewalescampgroundrvresort.com 
 +1 863 638-9011"
camping,40.015155,-76.146274,Country Acres Campground,"https://bird-in-hand.com/country-acres-campground/ 
 +1 717 687-8014"
camping,49.5625,3.5949,Camping «La Chênaie»,"http://www.camping-aisne.fr 
 +33 323 23 38 63"
camping,40.4491,-121.298,Juniper Lake,"https://www.nps.gov/lavo/planyourvisit/juniper-lake-campground.htm 
  "
camping,46.58807,7.90931,Camping Jungfrau Lauterbrunnen,"http://www.camping-jungfrau.ch/default.asp 
 +41 33 856 20 10"
camping,34.0637922,77.6241374,Bikamp Leh,"https://www.bikamp.com/bikamp-at-leh-ladakh-camping/ 
 +91 9549919666"
camping,48.0716,0.1893,Camping Le Vieux Moulin,"http://www.campinglevieuxmoulinlemans.com 
 +33 2 43 52 41 40"
camping,41.924,19.5418,Camping Albania B&B Restaurant,"http://www.camping-albania.eu/ 
 +355 67 380 7207"
camping,47.5378,9.731,Park-Camping Lindau,"http://www.park-camping.de/ 
 +49 8382 72236"
camping,67.87826,12.98109,Moskenesstraumen camping,"  
  "
camping,67.90012,13.05261,Moskenes camping,"http://moskenescamping.no 
 +47 994 89 405"
camping,42.4711,-2.4547,Camping La Playa,"http://www.campinglaplaya.com/ 
 +34 941-252-253"
camping,-23.4288,144.2369,Apex Riverside Park (Bush Camping),"http://longreachtourism.com.au/where-to-stay/loingreach-region-caravans-cabins-camping/ 
 +61 7 4658 4150"
camping,78.249181,15.49918,Longyearbyen Camping,"http://www.longyearbyen-camping.com/ 
 +47 79021444"
camping,47.04997,8.33893,Camping International Lido,"http://www.camping-international.ch/ 
  "
camping,51.16588,-4.6666,Camping,"https://www.landmarktrust.org.uk/search-and-book/properties/camping-5274#Overview 
 +44 1271 863636"
camping,49.5691456,6.1602299,Camping Bon Accueil,"http://www.camping-alzingen.lu/en/ 
  "
camping,45.6870338,4.7862152,Camping des Barolles,"https://www.barolles.fr/en/ 
 +33 4 78 56 05 56"
camping,58.04319,7.495879,Sandnes Camping,"http://www.sandnescamping.com/ 
 +47 988 87 366"
camping,-42.5818,148.0634,Darlington Campsite,"https://parks.tas.gov.au/explore-our-parks/maria-island-national-park/maria-island-camping-darlington 
  "
camping,-42.66342,148.03706,Encampment Cove Campsite,"https://parks.tas.gov.au/explore-our-parks/maria-island-national-park/maria-island-camping-encampment-cove 
  "
camping,-42.65122,148.04821,Frenchs Farm Campsite,"https://parks.tas.gov.au/explore-our-parks/maria-island-national-park/maria-island-camping-frenchs-farm 
  "
camping,54.77161,11.49315,Maribo Sø Camping,"http://www.maribo-camping.dk/Eng_Default.shtml 
 +45 5478 0071"
camping,57.893895,11.604972,Marstrands Familjecamping,"https://www.marstrandscamping.se/ 
 +46 303 605 84"
camping,-29.44893,120.60337,Lake Ballard camping,"http://lakeballard.com/visitor-information/camping-lake-ballard/ 
  "
camping,-29.40428,121.42816,Niagara Dam camping,"  
  "
camping,44.9165557,-75.8417029,Merrickville Lockstation,"https://www.pc.gc.ca/en/lhn-nhs/on/rideau/activ/camping 
 +1 613-283-5170"
camping,33.477559,-111.619368,Usery Mountain Regional Park,"https://www.maricopacountyparks.net/park-locator/usery-mountain-regional-park/park-activities/camping/ 
 +1 480 984-0032"
camping,37.2979,-108.4156,Morefield Campground,"http://www.visitmesaverde.com/lodging-camping/morefield-campground/ 
  "
camping,61.606,27.646,Lakeistenrannan Leirintä,"http://www.lakeistenranta.fi 
 +358 15 660215"
camping,30.62063,34.919958,Khan Be'erot Paid Campsite,"https://www.parks.org.il/en/camping/khan-beerot/ 
 +972 8 628-0404 ext 1"
camping,30.668512,34.806031,Derech Eretz Farm and Camping,"http://www.derecheretz-farmcamping.com 
 +972 549792207, +972 523700170"
camping,62.7424,7.2337,Kviltorp Camping,"http://www.kviltorpcamping.no 
 +47 71 21 17 42"
camping,38.0344,-119.2065,Lundy Canyon Campground,"http://www.monocounty.ca.gov/facilities/page/lundy-canyon-campground 
  "
camping,48.55792,-1.51446,Camping Haliotis,"  
 +33 2 33 68 11 59"
camping,44.184720018442064,5.275747845880687,Camping du Mont Serein,"http://campingventoux.com/ 
  "
camping,44.166897587843316,5.147718119642377,AIRE NATURELLE LE GROZEAU Aire naturelle,"http://www.lespiedsenlair.com/camping.html 
 +33 4 90 65 16 32"
camping,37.007062,-110.214697,Goulding's Lodge Campground,"http://www.gouldings.com/campground/ 
  "
camping,36.987029,-110.114609,The View Campground,"http://monumentvalleyview.com/campground/ 
 +1 435 727-5555"
camping,50.40442,-105.499625,Peanut Hills Campground,"http://peanuthillscampground.ca/ 
 +1 306-630-7909"
camping,50.385781,-105.521243,River Park Campground,"http://www.wakamow.ca/camping/ 
 +1 306-692-2285"
camping,36.7995,-121.7882,KOA Campground,"http://koa.com/campgrounds/moss-landing/ 
 +1 831-633-6800"
camping,32.393153,-110.704533,Rose Canyon Campground,"http://www.fs.usda.gov/recarea/coronado/recreation/camping-cabins/recarea/?recid=25698&actid=29 
 +1 520-749-8700"
camping,32.4167,-110.7405,Spencer Canyon Campground,"http://www.fs.usda.gov/recarea/coronado/recreation/camping-cabins/recarea/?recid=25710&actid=29 
 +1 520-749-8700"
camping,32.3376,-110.6907,Molino Basin Campground,"http://www.fs.usda.gov/recarea/coronado/recreation/camping-cabins/recarea/?recid=25674&actid=29 
 +1 520-749-8700"
camping,32.3391,-110.7177,Gordon Hirabayashi Campground,"http://www.fs.usda.gov/recarea/coronado/recreation/camping-cabins/recarea/?recid=25648&actid=29 
 +1 520-749-8700"
camping,32.3775,-110.6856,General Hitchcock Campground,"http://www.fs.usda.gov/recarea/coronado/recreation/camping-cabins/recarea/?recid=25646&actid=29 
 +1 520-749-8700"
camping,32.5411,-110.709,Peppersauce Campground,"http://www.fs.usda.gov/recarea/coronado/recreation/camping-cabins/recarea/?recid=25684&actid=29 
 +1 520-520-749-8700"
camping,36.589,-118.23,Whitney Portal campground,"  
  "
camping,37.0717,22.4052,Paleologio Camping,"http://www.campingpaleologio.com 
 +30 27310 22724, +30 6980125014 (Mobile)"
camping,60.4618,22.0287,Naantali Camping,"http://www.visitnaantalifinland.com/camping 
 +358 2 435-0855"
camping,46.45725,16.94451,Nyírfás Camping and Motel,"http://nyirfascamping.hu/ 
 +36 93 319-821"
camping,37.6092,-109.9842,Natural Bridges Campground,"https://www.nps.gov/nabr/planyourvisit/camping.htm 
  "
camping,29.895583,35.060171,Yotvata Hai-Bar Nature Reserve,"https://www.parks.org.il/en/camping/hai-bar-yotvata-campsite/ 
 +972 8 637-3057, +972 8-637-6018"
camping,30.93511,35.379709,Camping Neot,"http://campingneot.co.il/?lang=en 
 +972 52-8991147, +972 52-2456651"
camping,40.0968,23.7747,Camping Marmaras,"http://www.campingmarmaras.gr/ 
 +30 23750 71402, +30 23750 71901"
camping,54.226,-5.936,Camping Tollymore Forest Park,"https://www.nidirect.gov.uk/services/tollymore-forest-park-camping-touring-online-booking 
 +44 28 4372 2428"
camping,50.8868,-1.5281,Ashurst,"http://www.forestholidays.co.uk/caravanandcamping/sites/ashurst.asp 
 +44 8451 308224"
camping,50.8604,-1.5264,Denny Wood,"http://www.forestholidays.co.uk/caravanandcamping/sites/denny-wood.asp 
 +44 8451 308224"
camping,50.8295,-1.5705,Hollands Wood,"http://www.forestholidays.co.uk/caravanandcamping/sites/hollands-wood.asp 
 +44 8451 308224"
camping,50.7929,-1.6946,Holmsley,"http://www.forestholidays.co.uk/caravanandcamping/sites/holmsley.asp 
 +44 8451 308224"
camping,50.8656,-1.5348,Matley Wood,"http://www.forestholidays.co.uk/caravanandcamping/sites/matley-wood.asp 
 +44 8451 308224"
camping,50.9059,-1.6473,Ocknell,"http://www.forestholidays.co.uk/caravanandcamping/sites/ocknell-and-longbeech.asp 
 +44 845 130 8224"
camping,50.8167,-1.5289,Roundhill,"http://www.forestholidays.co.uk/caravanandcamping/sites/roundhill.asp 
 +44 8451 308224"
camping,50.8016,-1.6279,Setthorns,"http://www.forestholidays.co.uk/caravanandcamping/sites/setthorns.asp 
 +44 8451 308224"
camping,50.7797,0.08042,Buckle Camping,"http://www.buckle-camping.ukti.co.uk/ 
  "
camping,38.157,81.1861,New River Campgound,"http://www.newrivercampground.com 
 +1 304-632-9821"
camping,48.095,-121.1,Colonial Creek North Campground,"https://www.nps.gov/noca/planyourvisit/camping.htm#CP_JUMP_628810 
  "
camping,48.673,-121.267,Goodell Creek Campground,"https://www.nps.gov/noca/planyourvisit/camping.htm#CP_JUMP_628805 
  "
camping,48.716,-121.152,Gorge Lake Campground,"https://www.nps.gov/noca/planyourvisit/camping.htm#CP_JUMP_628809 
  "
camping,48.671,-121.261,Newhalem Creek Campground,"https://www.nps.gov/noca/planyourvisit/camping.htm#CP_JUMP_628782 
  "
camping,34.7406,-83.9757,Lake Winfield Scott,"http://www.recreation.gov/camping/lake-winfield-scott-rec/r/campgroundDetails.do?contractCode=NRSO&parkId=75347 
 +1 (706)747-3816"
camping,34.875,-84.25,Morganton Point Recreation Area (Lake Blue Ridge),"http://www.recreation.gov/camping/morganton-point/r/campgroundDetails.do?contractCode=NRSO&parkId=75484 
 +1 (706)374-1645"
camping,70.07,27.605,Nivajoki Camping,"http://tenolle.com/ 
 +358 40-755-8290"
camping,17.03095,-96.59902,Oaxaca Campground,"http://www.oaxacacampground.com 
 +52 951 216-5426"
camping,44.14647,4.79485,Camping Manon,"http://www.camping-manon.com/ 
 +33 4 32 81 94 96"
camping,31.942549,-112.811462,Twin Peaks campground,"http://www.nps.gov/orpi/planyourvisit/camping.htma 
  "
camping,65.0303,25.4203,Nallikari Lomakylä-Camping,"http://www.campingfinland.fi/ 
 +358 44-703-1353"
camping,34.4306,-89.8028,John W. Kyle State Park,"http://mississippistateparks.reserveamerica.com/ms/John_W_Kyle/Campground/r/campgroundDetails.do?contractCode=MS&parkId=152813 
 +1 662 487-1345"
camping,51.762863,8.688265,Lippesee Camping,"http://www.lippeseecamping.de/ 
  "
camping,48.58218,13.47305,Camping-Passau,"http://www.camping-passau.de/ 
 +49 851 41457"
camping,40.37081,0.40266,Camping Edén,"http://www.camping-eden.com/en 
 +34 964 480 562"
camping,45.6602,-118.7805,Pendleton KOA,"http://koa.com/campgrounds/pendleton/ 
 +1 541 276-1041 (info)"
camping,48.662368,-64.223825,Camping du Cap Rouge,"http://campingcaprouge.com/en/ 
 +1 418-645-3804"
camping,48.510338,-64.221613,Camping Côte Surprise,"http://www.campingperce.com/web/?lang=en 
 +1 418-782-5443"
camping,32.712182,-111.499583,Picacho / Tucson KOA,"http://koa.com/campgrounds/picacho-tucson-nw/ 
 +1 520-466-2966"
camping,42.489289,-73.238531,Bonnie Brae Cabins & Campsites,"http://bonniebraecampground.tripod.com 
 +1 413 442-3754"
camping,61.5707,21.5257,Yyterin leirintäalue,"http://www.topcampingyyteri.fi/en/index 
 +358 2 634 5700"
camping,55.17434,12.1014,Feddet Strand Camping & Feriepark Canoe and Kayak rental,"http://www.feddetcamping.dk/oplevelse/kajak/ 
  "
camping,34.51099112,-112.3804884,Hilltop Campground,"http://www.fs.usda.gov/recarea/prescott/recreation/camping-cabins/recarea/?recid=67183&actid=29 
 +1 928-443-8000"
camping,34.51664559,-112.3880009,Lynx Campground,"http://www.fs.usda.gov/recarea/prescott/recreation/camping-cabins/recarea/?recid=67181&actid=29 
 +1 928-443-8000"
camping,34.595526,-112.425494,Point of Rocks RV Campground,"http://www.pointofrockscampground.com 
 +1 928-445-9018"
camping,34.50854084,-112.476462,White Spar Campground,"http://www.fs.usda.gov/recarea/prescott/recreation/camping-cabins/recarea/?recid=67165&actid=29 
 +1 928-443-8000"
camping,34.60243719,-112.5404923,Yavapai Campground,"http://www.fs.usda.gov/recarea/prescott/recreation/camping-cabins/recarea/?recid=67185&actid=29 
 +1 928-443-8000"
camping,54.4234,13.5781,Camping Meier,"http://www.camping-meier-ruegen.de/ 
 +49 38393 2085"
camping,42.062094,-70.186583,Dunes' Edge Campground,"http://www.thetrustees.org/places-to-visit/cape-cod-islands/dunes-edge-campground.html 
 +1 508 487-9815"
camping,33.648118,-114.287921,Dome Rock Mountain Camping Area,"http://www.blm.gov/az/st/en/prog/recreation/camping/dev_camps/dome-rock.html 
 +1 928-317-3200"
camping,33.583189,-114.217848,Roadrunner Camping Area,"http://www.blm.gov/az/st/en/prog/recreation/camping/dev_camps/roadrunner.html 
 +1 928-317-3200"
camping,33.65821,-114.200909,Scadden Wash Camping Area,"http://www.blm.gov/az/st/en/prog/recreation/camping/dev_camps/scaddan.html 
 +1 928-317-3200"
camping,55.09849,8.54431,Kommandørgården Camping,"http://camping.kommandoergaarden.dk/ 
  "
camping,48.1352,-1.6429,Camping des Gayeulles,"http://www.camping-rennes.com/en/ 
 +33 2 99 36 91 22"
camping,51.000724,-118.221,Lamplighter Campground,"https://www.lamplightercampground.com/ 
 +1 250-837-3385"
camping,50.99232,-118.160062,Revelstoke Campground,"http://revelstokecampground.com/ 
 +1 250-837-2085"
camping,50.989396,-118.278757,Smokey Bear Campground Resort,"http://smokey-bearcampground.com/ 
 +1 250-837-9573"
camping,50.96776,-118.171654,Williamson Lake Campground,"https://www.williamsonlakecampground.ca/ 
 +1 250-837-8806"
camping,55.44782,11.79852,Skovly Camping,"http://www.skovlycamping.dk/ 
  "
camping,43.944552,-92.348093,Rochester/Marion KOA,"https://koa.com/campgrounds/rochester/ 
 +1 507 288-0785"
camping,40.42222,-105.62028,Aspenglen Campground,"https://www.recreation.gov/camping/aspenglen-campground/r/campgroundDetails.do?contractCode=NRSO&parkId=72084 
  "
camping,40.32917,-105.59333,Glacier Basin Campground,"https://www.recreation.gov/camping/glacier-basin-campground/r/campgroundDetails.do?contractCode=NRSO&parkId=70942 
  "
camping,53.17633,6.42329,Camping Cnossen Leekstermeer,"https://www.cnossenleekstermeer.nl/camping-in-drenthe 
  "
camping,53.578,-8.067,Galey Bay,"https://galeybaycamping.ie/ 
 +353 90 666 1058"
camping,33.08016,35.10659,Beezet Beach (camping),"  
  "
camping,55.6737,12.08227,Roskilde Camping,"http://www.roskildecamping.dk 
 +4546757996"
camping,53.069,-6.222,Roundwood Caravan & Camping Park,"http://dublinwicklowcamping.com/ 
 +353 1 281 8163"
camping,66.4979,25.7424,Ounaskoski Camping,"http://www.ounaskoski-camping-rovaniemi.com/html/ENG/ENG%20Welcome.html 
 +358 16 345 304"
camping,54.798437,11.640965,Sakskoebing Camping,"http://saxcamping.dk/ 
 +45 54 70 45 66"
camping,55.833681,10.638071,Ballen Strandcamping,"http://www.ballenstrandcamping.dk/ 
 +45 86 59 12 10"
camping,55.892495,10.596815,Sælvigbugtens Camping,"http://saelvigbugtens-camping.dk/ 
 +45 86 59 07 07"
camping,55.97429,10.56172,Klitgård Camping,"https://www.klitgaardcamping.dk/ 
 +45 86591722"
camping,1.8881583,-76.2768471,Hostals and Camping Gamcelat,"http://campinggamcelat.jimdo.com/ 
 +57 837-36-49, +57 313-245-83-73"
camping,59.0985,10.2419,Asnes Camping og badestrand,"http://asnescamping.no 
 +47 90 84 45 84"
camping,51.274,1.332,Sandwich Leisure Holiday Park,"https://www.sandwichleisurepark.co.uk/touring-and-camping/touring/index.htm 
 +44 1304 612681"
camping,43.30411,-2.04615,Camping Igueldo,"http://www.campingigueldo.com 
 +34 943-280490"
camping,39.901737,-111.727806,Tinney Flat,"http://www.recreation.gov/campgroundDetails.do?contractCode=NRSO&parkId=70513 
 +1 801 798-3571"
camping,59.3183,10.9807,Utne camping,"http://utnecamping.no/en-gb/Accomodation 
 +47 69 14 71 26"
camping,57.3604,10.509,Svalereden Camping & Cottages,"http://eng.svaleredencamping.dk/ 
 +45 9846 1937"
camping,61.248335,17.194819,Stenö camping,"http://www.stenohavsbad.se/ 
  "
camping,54.901058,9.797927,Sønderborg camping,"https://sonderborgcamping.dk/en/ 
 +45 74 42 41 89"
camping,33.694673,-111.732638,McDowell Mountain Regional Park,"https://www.maricopacountyparks.net/park-locator/mcdowell-mountain-regional-park/park-activities/camping/ 
 +1 480-471-0173"
camping,34.998766,-111.73974,Cave Springs Campground,"http://www.fs.usda.gov/recarea/coconino/recreation/camping-cabins/recarea/?recid=55268&actid=29 
  "
camping,34.927418,-111.734458,Manzanita Campground,"http://www.fs.usda.gov/recarea/coconino/recreation/camping-cabins/recarea/?recid=55352&actid=29 
 +1 928-203-2900"
camping,35.012347,-111.738465,Pine Flat Campground,"http://www.fs.usda.gov/recarea/coconino/recreation/camping-cabins/recarea/?recid=55374&actid=29 
  "
camping,50.866135,-118.928718,Family Tree Riverside RV & Campground,"https://www.familytreeriversidervcampground.com/ 
 +1 250-836-2583"
camping,43.336885,11.331254,Siena Colleverde,"http://www.sienacamping.com/ 
 +39 0577 332 545, +39 0577 334 080"
camping,31.428782000000002,-110.303982,Ramsey Vista Campground,"http://www.fs.usda.gov/recarea/coronado/recreation/camping-cabins/recarea/?recid=25506&actid=29 
 +1 520-378-0311"
camping,31.42917,-110.29056,Reef Townsite Campground,"http://www.fs.usda.gov/recarea/coronado/recreation/camping-cabins/recarea/?recid=25508&actid=29 
  "
camping,53.959,-2.049,Niffany Farm Caravan and Camping Site,"http://niffanycaravan-camping.co.uk/ 
 +44 7759 882979"
camping,68.1096,27.4388,Sompio SNR camping site,"  
  "
camping,52.98679,9.9107,Camping Mühlenbach,"http://www.camping-muehlenbach.de/ 
 +49 5191 14912"
camping,53.00669,9.93782,Camping Scandinavia,"http://www.scandinavia-camping.de/ 
 +49 5191 2293"
camping,36.96556,-84.84222,Cumberland Point Campground,"http://www.recreation.gov/campgroundDetails.do?contractCode=NRSO&parkId=71117 
 +1 606 871-7886"
camping,37.00872,-84.78596,Cumberland Point Campground & RV Resort,"http://www.cumberlandpointcampground.com/ 
 +1 606 271-3923"
camping,37.00361,-84.62306,Waitsboro Campground,"http://www.recreation.gov/camping/Waitsboro_Campground/r/campgroundDetails.do?contractCode=NRSO&parkId=71478 
 +1 606 561-5513"
camping,47.505964,10.273743,IllerCamping,"http://www.illercamping.de/ 
  "
camping,31.3886,-111.0926,White Rock Campground,"http://www.fs.usda.gov/recarea/coronado/recreation/camping-cabins/recarea/?recid=25796&actid=29 
 +1 520-281-2296"
camping,31.92645,-109.97782,Rock climbing,"http://www.fs.usda.gov/recarea/coronado/recreation/camping-cabins/recarea/?recid=80249&actid=37 
  "
camping,31.94637,-109.95534,Half Moon Ranch,"http://www.fs.usda.gov/recarea/coronado/recreation/camping-cabins/recarea/?recid=80126 
 +1 877-833-6777"
camping,31.89855,-109.16236,Portal Bunkhouse,"http://www.fs.usda.gov/recarea/coronado/recreation/camping-cabins/recarea/?recid=80722 
 +1 877-833-6777"
camping,31.90083,-109.16083,Portal CCC House,"http://www.fs.usda.gov/recarea/coronado/recreation/camping-cabins/recarea/?recid=80723 
 +1 877-833-6777"
camping,31.92639,-109.95556,Shaw House,"http://www.fs.usda.gov/recarea/coronado/recreation/camping-cabins/recarea/?recid=80125 
 +1 877-833-6777"
camping,31.9441,-109.957,Cochise Stronghold Campground,"http://www.fs.usda.gov/recarea/coronado/recreation/camping-cabins/recarea/?recid=25446&actid=29 
 +1 520-364-3468"
camping,31.8907,-109.1678,Stewart Campground,"http://www.fs.usda.gov/recarea/coronado/recreation/camping-cabins/recarea/?recid=25426&actid=29 
 +1 520-364-3468"
camping,31.8848,-109.1754,Sunny Flat Campground,"http://www.fs.usda.gov/recarea/coronado/recreation/camping-cabins/recarea/?recid=25428&actid=29 
 +1 520-364-3468"
camping,32.2386169,-109.5000992,Indian Bread Rocks Picnic Area,"http://www.blm.gov/az/st/en/prog/recreation/camping/dev_camps/indian_bread_rocks.html 
 +1 928-348-4400"
camping,31.4283,-110.451,Lakeview Campground,"http://www.fs.usda.gov/recarea/coronado/recreation/camping-cabins/recarea/?recid=25514&actid=29 
 +1 520-378-0311"
camping,50.078003,-5.624618,Tower Park Caravan & Camping,"http://www.towerparkcamping.co.uk/ 
 +44 1736 810286"
camping,41.2438,-81.3878,Streetsboro/Cleveland Se KOA,"http://koa.com/campgrounds/streetsboro/ 
 +1 330 650-2552"
camping,58.952552,-3.295214,Point of Ness Caravan and Camping Site,"http://www.scottishcampingguide.com/link.php?n=43&c=10 
 +44 1856 873535"
camping,41.15486,20.65082,Camping Rino Rooms,"https://campingrino.com/ 
 +389 70 878 256"
camping,48.79387,9.21918,Campingplatz Cannstatter Wasen,"http://www.campingplatz-stuttgart.de/indexenglish.html 
 +49 711 556696"
camping,-33.7923,151.15319,Lane Cove River Tourist Park,"http://www.nationalparks.nsw.gov.au/camping-and-accommodation/campgrounds/lane-cove-river-tourist-park-caravan-park 
 +61 2 9888 9133"
camping,-33.82893,151.06167,Sydney Olympic Park Lodge,"https://camping.ymcansw.org.au/sopl/ 
 +61 2 9737 8139"
camping,54.8931,8.2979,Dünen Camping Sylt,"http://www.campingplatz-westerland.de/ 
 +49 4651 836160"
camping,35.7916,-5.8319,Camping Miramonte,"http://www.campingmiramonte.com/ 
  "
camping,60.8277,14.9785,Tällbergs Camping,"http://www.xn--tllbergscamping-0kb.se/ 
 +46 247-513 10"
camping,48.50987,9.03534,Neckar Camping,"http://www.neckarcamping.de 
 +49 7071 43145"
camping,-46.3859,169.7756,Kaka Point Camping Ground,"http://kakapointcamping.co.nz/ 
 +64 3 412-8801"
camping,-46.6612,169.104,Curio Bay Camping Ground,"https://www.curioscape.co.nz/campground/ 
 +64 3-246 8897"
camping,46.95,-103.5322,Cottonwood Campground,"https://www.nps.gov/thro/planyourvisit/cottonwood-campground.htm 
 +1 701-623-4466"
camping,47.595,-103.34,Juniper Campground,"https://www.nps.gov/thro/planyourvisit/juniper-campground.htm 
 +1 701-842-2333"
camping,47.0069,-103.5056,Roundup Group Horse Camp,"https://www.nps.gov/thro/planyourvisit/roundup-group-horse-campground.htm 
 +1 701-623-4466"
camping,56.95207,8.71387,Thisted camping & hytteferie,"http://www.thisted-camping.dk 
 +45 97 92 16 35"
camping,58.59815,-3.52895,Thurso Bay Caravan & Camping Park,"http://www.thursobaycamping.co.uk 
 +44 1847 892244"
camping,51.702608,-2.671306,The Old Station Campsite,"http://www.wyedeantourism.com/placestostay-filter-camping/view-3711-Tintern,The_Old_Station_Tintern 
 +44 1291 689566"
camping,45.2255693,-81.5247865,Cyprus Lake Campground,"http://www.pccamping.ca/parkscanada/ 
  "
camping,-51.0239,-72.9854,Refugio Los Cuernos,"https://www.fantasticosur.com/en/mountain-lodges/cuernos-mountain-lodges-and-camping/ 
  "
camping,-51.0082,-73.176,Refugio Grey,"https://www.vertice.travel/en/refugio-camping-grey/ 
  "
camping,57.54363,-5.50191,Torridon Camp Site,"http://www.scottishcamping.com/link.php?n=17 
  "
camping,53.95564,10.88072,Camping Priwall,"http://www.strandcamping-priwall.de/ 
 +49 4502 2835"
camping,63.4502,10.2024,Flakk Camping,"http://www.flakk-camping.no/?lang=en 
  "
camping,63.434,10.71,Storsand Gård Camping,"http://www.storsandcamping.no/ 
  "
camping,63.3258,10.2129,Øysand Camping,"http://www.oysandcamping.no/ 
  "
camping,32.220553,-111.14463,"Tucson Mountain Park, Gilbert Ray Campground","http://www.pima.gov/nrpr/camping/index.htm 
  "
camping,60.4226,22.0941,Ruissalo Camping,"http://www.visitturku.fi/en/ruissalo-camping_-0 
 +358 2 262-5100"
camping,60.4618,22.0287,Naantali Camping,"http://www.visitnaantalifinland.com/camping 
 +358 2 435-0855"
camping,35.93776,-112.12353,Ten-X Campground,"http://www.recreation.gov/camping/ten-x-campground/r/campgroundDetails.do?contractCode=NRSO&parkId=75372 
 +1 928-638-2443"
camping,50.934334,0.138229,Honeys Green Farm,"http://www.caravancampingsites.co.uk/sussex/honeysgreenfarm/honeysgreenfarm.html 
 +44 1825 880078"
camping,58.330694,11.822737,Unda camping,"http://www.undacamping.se/ 
 +46 522-863 47"
camping,57.58618,-6.38,Uig Bay Campsite,"http://www.uig-camping-skye.co.uk 
 +44 1470 542714"
camping,35.579426,139.785163,Jōnanjima Kaihin park campground,"https://seaside-park.jp/park_jonan/bbq/ 
 +81 3-3799-6402"
camping,35.582012,139.743335,Heiwajima park campground,"https://www.city.ota.tokyo.jp/smph/shisetsu/sports/camp/heiwajima_camp.html 
 +81 3-3766-1607"
camping,35.617557,139.832758,Wakasu park campground,"https://www.tptc.co.jp/park/03_09/camp 
 +81 3-5569-6701"
camping,34.710402,135.570378,Tsurumi ryokuchi campground,"https://www.tsurumi-ryokuchi.jp/guide/bbq-camp.html 
 +81 50-3816-6374"
camping,47.357812,8.811736,Camp site Waldhof,"http://www.campingwaldhof.ch/ 
  "
camping,63.0925,21.587,Top Camping Vaasa,"https://www.tropiclandia.fi/topcamping/en/ 
  "
camping,57.089628,12.252807,Agrell´s stugor o camping,"http://www.agrellstugor.se/ 
 +46 340-12054"
camping,57.191073,12.189645,Espeviks camping,"http://www.espevikscamping.se/ 
 +46 340 - 62 20 22"
camping,57.116708,12.213674,Getteröns camping,"http://www.getteronscamping.se/ 
 +46 340 - 62 20 22"
camping,57.072935,12.282103,Läjets camping,"http://www.lajetscamping.se/ 
 +46 340 - 20 54 80"
camping,57.300146,12.189653,Stråvalla camping,"http://www.stravallacamping.se/ 
 +46 340 - 65 73 73"
camping,57.384028,21.536556,Piejūras kempings,"http://www.camping.ventspils.lv/en/startpage/ 
 +371 63627925"
camping,57.600329,25.815729,Green Camping,"https://www.facebook.com/greencamping.lv 
 +371 20420295"
camping,60.62475,6.42213,Voss Camping,"http://www.vosscamping.no/ 
 +47 56 51 15 97"
camping,46.1706,-123.9494,Astoria/ Warrenton/ Seaside KOA,"http://koa.com/campgrounds/astoria/ 
 +1 503-861-2606"
camping,52.178096,21.147311,Camping WOK,"http://www.campingwok.warszawa.pl/ 
 +48 22 612 79 51"
camping,60.03825,-128.42398,Downtown RV Park,"https://www.goodsam.com/campgrounds-rv-parks/details/default.aspx?cgid=890000760 
 +1 867 536-2646"
camping,33.08016,35.10659,Betzet Beach (camping),"  
  "
camping,35.28306,-112.15861,Kaibab Lake Recreation Site,"http://www.recreation.gov/camping/Kaibab_Lake_Group_Area_Az/r/campgroundDetails.do?contractCode=NRSO&parkId=73905 
 +1 928-635-5600"
camping,35.259107,-112.116665,Williams Circle Pines KOA,"http://koa.com/campgrounds/williams/ 
 +1 928-635-2626"
camping,43.5653,-103.4892,Elk Mountain Campground,"https://www.nps.gov/wica/planyourvisit/campgrounds.htm 
  "
camping,40.9807,-117.7065,Winnemucca/I-80 KOA,"https://koa.com/campgrounds/winnemucca/ 
 +1 775 623-4513"
camping,52.672115,9.935907,Campingpark Südheide,"http://www.campingpark-suedheide.de/en/seiten/index.php 
 +49 5143 6661803"
camping,52.0928,4.8857,Camping Batenstein,"http://www.camping-batenstein.nl 
 +31 348 421320"
camping,-32.834948,150.205637,Ganguddy-Dunns Swamp campground,"https://www.nationalparks.nsw.gov.au/camping-and-accommodation/campgrounds/ganguddy-dunns-swamp-campground 
  "
camping,-33.456439,150.722263,Wheeny Creek campground,"https://www.nationalparks.nsw.gov.au/camping-and-accommodation/campgrounds/wheeny-creek-campground 
  "
camping,62.5298,-143.2588,Kendesnii Campground,"https://www.nps.gov/wrst/planyourvisit/camping-along-the-nabesna-road.htm 
  "
camping,37.739443,-119.56642,Lower Pines Campground,"https://www.nps.gov/yose/planyourvisit/pinescampgrounds.htm 
  "
camping,37.742128,-119.566265,North Pines Campground,"https://www.nps.gov/yose/planyourvisit/pinescampgrounds.htm 
  "
camping,37.736248,-119.563813,Upper Pines Campground,"https://www.nps.gov/yose/planyourvisit/pinescampgrounds.htm 
  "
camping,37.1986,-112.9885,Watchman Campground,"https://www.nps.gov/zion/planyourvisit/watchman-campground.htm 
  "
camping,37.205,-112.9829,South Campground,"https://www.nps.gov/zion/planyourvisit/south-campground.htm 
  "
camping,37.3836,-113.0328,Lava Point Campground,"https://www.nps.gov/zion/planyourvisit/lava-point-campground.htm 
  "
camping,47.3363,8.5411,Fischer's Fritz Camping,"http://www.fischers-fritz.ch/en/camping 
 +41 44 482 16 12"
camping,59.33721,17.89349,Ängby Camping,"http://angbycamping.se/en/home/ 
 +46 8 370 420"
camping,45.85316,18.24098,Camping Harkany,"http://campingharkany.hu/ 
 +36 72 580965, +36 30 4155790 (mobile)"
camping,49.097447,9.7421,Campingplatz Steinbacher See,"http://www.camping-schwaebisch-hall.de/ 
 +49 791 2984"
camping,46.76487,17.28995,Caraván Camping,"http://caravancamping.hu/en/ 
 +36 83 316-020"
camping,46.78233,17.283080000000002,Szent Ilona Camping,"https://st-ilonacamping.business.site/ 
 +36 30 480-0010"
camping,36.755175,21.854937,Tsapi Camping,"http://www.campingtsapi.gr/ 
 +30 27250 51521, +30 27250 51503"
camping,36.7994,21.9504,Koroni Camping,"http://www.koronicamping.com 
 +30 27250 22119, +30 6984 631118 (Mobile)"
camping,53.4895,-1.893,Crowden campsite,"http://www.campingandcaravanningclub.co.uk/siteseekerlite/aspx/details.aspx?id=8060 
 +44 1457 866057"
camping,48.17419,11.44599,Campingplatz Obermenzing,"http://www.campingplatz-muenchen.de/englisch/index.html 
 +49 89 8112235"
camping,48.09091,11.54492,Camping Munich-Thalkirchen,"http://www.muenchen.de/rathaus/Stadtverwaltung/Kommunalreferat/immobilien/campingplatz.html 
 +49 89 7231707"
camping,44.23433041261195,5.09042501449585,Le Carpe Diem (camping),"http://www.camping-carpe-diem.com 
 +33 4 90 36 02 02"
camping,44.24484547134214,5.078022480010986,Le Théatre romain (camping),"http://www.camping-theatre.com 
 +33 4 90 28 78 66"
camping,59.9798,18.4029,Fyrväpplingen Fiskecamp,"http://fyrvapplingen.se/stugor-camping/ 
 +46 5404-7139"
camping,41.35001,-110.29926,Lyman KOA,"http://koa.com/campgrounds/lyman/ 
 +1 307 786-2188"
camping,4.636975,-75.484713,Bosques de Cocora campground,"http://www.valledelcocora.com.co/component/content/article/44/128-este-fin-de-semana.html 
 +57 6 746-3515"
camping,40.73588,-114.06632,Wendover KOA,"http://koa.com/campgrounds/wendover/ 
 +1 775 664-3221"
camping,31.988004,-110.302286,Benson KOA,"http://koa.com/campgrounds/benson/ 
 +1 520 586-3977"
camping,31.8339,-110.3509,Kartchner Caverns State Park,"https://azstateparks.itinio.com/kartchnercaverns/campground/ 
 +1 520-586-2283 (reservations)"
camping,53.3903,5.3058,De Kajuit,"http://www.campingmast.nl/restaurant 
 +31 562 449 685"
camping,52.3906,4.5388,Camping Duinenrand,"http://www.campingdeduinrand.nl/en/welcome-to-camping-de-duinrand-in-zandvoort.html 
 +31 235 712 412"
camping,42.6493,-80.80762,Big Otter Marina & Campgrounds,"http://www.campinginontario.ca/BigOtterMarinaAndCampground 
 +1 519-874-4034"
camping,64.2348,23.8036,Top Camping Kalajoki,"http://www.kalajokicamping.fi/ 
  "
camping,32.883,-109.481,River View Campground,"http://www.blm.gov/az/st/en/prog/recreation/camping/dev_camps/riverview_campground.html 
 +1 928-348-4400"
camping,38.9739,20.716,Kalamitsi Camping,"http://www.campingkalamitsi.eu 
 +30 26820 22368, +30 26820 22192"
camping,38.5876,-0.06067,Camping Santa Clara,"http://www.campingsantaclaraaltea.com/en/ 
 +34 965 842 356"
camping,38.57768,-0.06487,Camping Cap-Blanch,"http://www.camping-capblanch.com/gb/index.html 
 +34 965 845 946"
camping,53.361592,-113.706864,Devon Lions Campground,"http://devonlionscampground.activenuketoo.com/ 
 +1 780-987-4777"
camping,41.026667,-115.085,Angel Lake,"https://www.recreation.gov/camping/angel-lake/r/campgroundDetails.do?contractCode=NRSO&parkId=70231 
  "
camping,54.5692,13.6127,Krüger Naturcamping,"http://www.ruegen-naturcamping.de/index_en.php 
 +49 38302 9244"
camping,45.657541,10.038411,Campeggio del sole,"http://www.campingdelsole.it 
 +39 030 980288"
camping,45.664259,10.057255,Iseo,"http://www.campingiseo.it 
 +39 030 980213"
camping,45.663801,10.055807,Punta d'oro,"http://www.camping-puntadoro.com 
 +39 030 980084"
camping,45.665932,10.062907,Quai,"http://www.campingquai.it 
 +39 030 9821610, +39 347 8116004"
camping,45.66703,10.066931,Covelo,"http://www.campingcovelo.it 
 +39 030 9821305"
camping,51.64932,3.9386,Camping Zierikzee,"http://www.campingzierikzee.nl/ 
 +31 111 412846"
camping,51.64742,3.94406,Minicamping Gouweveer,"http://www.camping-gouweveer.nl/ 
 +31 111 420732"
camping,54.633527,13.375066,Campingplatz Drewoldke,"http://www.camping-auf-ruegen.de/ 
 +49 38391 12965"
camping,54.515724,13.166352,Campingplatz Am Schaproder Bodden,"https://www.camping-schaprode.de/ 
 +49 38309 1234"
camping,39.3097,23.1096,Sikia,"http://www.camping-sikia.gr 
 +30 24 2302 2279"
camping,51.926272,-5.220076,Celtic Camping & Bunkhouse Accommodation,"http://www.celtic-camping.co.uk 
 +44 1348 837405"
camping,51.289378,3.333622,Camping Hoeke,"http://www.campinghoeke.be/home.html 
 +32 50 50 04 96"
camping,48.19909,11.49629,Campingplatz Nord-West,"http://www.campingplatz-nord-west.de/ 
  "
camping,47.72778,11.8519,Lido camping,"http://camping-lido-schliersee.de/ 
 +49 8026 6624"
camping,41.658549,2.779191,Camping Blanes,"http://campingblanes.com/en/ 
 +34 972 33 15 91"
camping,41.662813,2.780779,Camping la Masia,"http://www.campinglamasia.com/en/home.html 
 +34 972 33 10 13"
camping,50.58302,26.1439,Auto camping and Restaurant,"  
 +380 362 634272, +380 362 269635, +380 362 634293"
camping,46.03893,8.73387,Lago Camp Parkcamping Maccagno,"http://www.lagocamp.com 
 +39 332560203"
camping,36.93304,-84.77941,Mill Springs Mill,"http://www.reserveamerica.com/camping/Mill_Springs_Mill_Shelter/r/campgroundDetails.do?contractCode=NRSO&parkId=109733 
 +1 606 679-6337"
camping,36.92396,-84.847,Fall Creek Campground,"http://www.reserveamerica.com/camping/Fall_Creek_Campground/r/campgroundDetails.do?contractCode=NRSO&parkId=108533 
 +1 606 348-6042"
camping,42.29848,9.14969,Camping Alivetu,"http://www.camping-alivetu.com/alivetu-2014/le-camping-1-fr.html 
  "
camping,60.317,22.301,Camping Solliden,"http://www.solliden.fi/ 
 +358 40-758-4708"
camping,52.9536,0.9241,High Sand Creek,"https://coolcamping.com/campsites/uk/england/east-anglia/norfolk/116-high-sand-creek 
 +44 1328 830235"
camping,60.0257,22.5006,Dalsbruks camping,"  
 +358 40-661-5939"
camping,43.2994,-76.8263,Port Bay RV Park & Campground,"http://www.portbaycampground.com/ 
 +1 315 594-1509"
camping,61.9171,5.1352,Steinvik Camping,"http://www.steinvik-camping.no/ 
 +47 57 85 10 70"
camping,64.47476,11.57933,Namsos Camping,"http://www.namsos-camping.no/?plId=82080 
 +47 74 27 53 44"
camping,44.04415997630733,5.053943241946399,Camping Lou Comtadou,"http://www.campingloucomtadou.com/ 
  "
camping,61.90636,6.72479,Stryn Camping,"http://www.stryn-camping.no/ 
 +47 57 87 11 36"
camping,45.2252905,22.1450784,Trei Ape,"http://campingtreiape.ro/ 
  "
camping,43.9148614,5.073525399999994,Camping la Sorguette,"http://www.camping-sorguette.com/ 
 +33 4 90 38 05 71"
camping,53.06204,5.52957,Stadscamping Bolsward,"http://www.optisport.nl/stadscampingbolsward/ 
 +31 515-573573"
camping,53.0738,5.5215,Boerencamping Half-Hichtum,"http://www.half-hichtun.nl 
 +31 515 57 26 83"
camping,54.82754,26.728157,"Campsite ""Narach""","http://www.narochpark.by/proghivanie/camping/ 
 +375 1797 49807"
camping,49.704,6.57325,Campingplatz Konz Saarmündung,"http://www.campingplatz-konz.de/ 
 +49 6501 2577"
camping,45.66415,10.00007,Cantiere del Lago,"http://www.campingbellini.it/ 
 +39 030989166, +39 035930759 (during the winter)"
camping,45.6653688,9.9921561,Camping Le Betulle,"  
 +39 030989349"
camping,51.724396,-5.1038,Sandy Haven Camping park,"http://www.sandyhavencampingpark.co.uk/ 
 +44 1646 698844"
camping,48.323244,-64.69894,Pabos Borough Campground,"http://www.lebourgdepabos.com/en/campground/ 
 +1 418 689-6043"
camping,48.372045,-64.617916,La Seigneurie,"http://www.campinglaseigneurie-fr.com/ 
 +1 418 689-3031"
camping,45.97541,9.32231,Free camping in Ortanella,"  
  "
camping,47.2012,19.7347,Termal Bad with Aquapark and Camping,"http://www.cegledfurdo.hu/ 
 +36 53 505000"
camping,58.70094,11.34507,Tanums Camping & Stugby,"http://www.tanumscamping.se/ 
 +46 525 200 02"
camping,50.38942,8.07826,Campingplatz Limburg,"http://www.lahncamping.de/ 
 +49 6431 22610"
camping,51.674036,-3.631222,Glyncorrwg Ponds,"https://glyncorrwgpondsvisitorcentre.co.uk/camping.html 
 +44 1639 851900"
camping,53.59,9.932,Camping Buchholz,"http://www.camping-buchholz.de/ 
 +49 40 5404532"
camping,46.979967,-0.219622,Camping municipal,"http://www.thouars-communaute.fr/camping_municipal.html 
 +33 5 49 66 17 99"
camping,48.3314,16.0704,Donaupark Camping Tulln,"http://www.campingtulln.at/ 
 +43 2272 65200"
camping,-32.85389,135.15057,Minnipa Apex Park (free camping),"  
  "
camping,-32.7255,135.2544,Pildappa Rock (free camping),"  
  "
camping,41.194,-81.4057,Silver Springs Campground,"https://stowohio.org/silver-springs-campground/ 
  "
camping,42.1182,-123.4333,Cave Creek Campground,"https://www.nps.gov/orca/planyourvisit/campgrounds.htm 
 +1 541-592-2100"
camping,54.30775,8.64862,Campingpark Olsdorf,"http://www.camping-olsdorf.de/ 
 +49 4863 47 63 17"
camping,51.405992,7.170616,Campingplatz Ruhrbrücke in Hattingen,"http://www.camping-hattingen.de/ 
 +49 2324 80038"
camping,46.497,-63.408,Cavendish Campground,"https://www.pc.gc.ca/eng/pn-np/pe/pei-ipe/activ/activ-menu/camping/cavendish.aspx 
  "
camping,46.422,-63.11,Stanhope Campground,"https://www.pc.gc.ca/eng/pn-np/pe/pei-ipe/activ/activ-menu/camping/stanhope.aspx 
  "
camping,51.51847,3.45173,Camping Zuiderduin,"http://campingzuiderduin.nl/nl/ 
 +31 118 571560"
camping,51.51817,3.45139,Camping t´Hoekje,"http://www.camping-hoekje.nl 
 +31 118 571798"
camping,51.5174,3.45743,Camping t´hoge Licht,"http://www.campinghethogelicht.nl/ 
 +31 118 571268"
camping,51.51846,3.45108,Caravancamping,"http://www.caravancampingwestkapelle.nl/Caravancamping_Westkapelle/Welkom_NL.html 
 +31 118 571238"
camping,51.51876,3.45313,Camping Kreekebos,"http://www.campingkreekebos.nl/ 
 +31 118 570072"
camping,51.5361,3.4411,Minicamping Manege de Zandbooi,"http://www.dezandbooi.nl/ 
 +31 118 570055 or +31 654777852"
camping,51.53071,3.44867,Minicamping Vuurtoren,"http://www.minicampingdevuurtoren.nl 
 +31 118 571368"
camping,51.53575,3.47079,Minicamping de Ark,"http://www.minicampingdeark.nl/nl/ 
 +31 620628081"
camping,49.3041,-124.4449,Coombs Country Campground,"http://www.coombscampground.com 
 +1 250-248-9371"
camping,50.474405,7.508986,Campingplatz Oberbieber,"http://www.campingplatz-aubachtal.de/ 
  "
camping,48.495166,-67.456564,Camping d'Amqui/La Maison du camping d'Amqui,"http://www.campingamqui.com 
 +1 418-629-4242"
camping,68.4332528,22.5117194,Karesuando Camping & Rekreation,"http://karesuandocamping.blogspot.fi 
 +46 70-605-1124"
camping,37.1725,126.6172,J campingi,"http://blog.naver.com/saneunim 
 +82 31-357-2341"
camping,40.6017961,-81.1773357,ABC Country Camping and Cabins,"http://www.abccampingandcabins.com/ 
 +1 330 735-3220"
camping,50.159742,7.70833,Campingplatz Loreleystadt,"http://www.camping-loreleystadt.de 
 +49 6771 2592"
camping,53.5936,6.6781,Insel-Camping-Borkum,"http://www.insel-camping-borkum.de/neu/index.html 
  "
camping,48.39078,15.51663,Camping Rossatz,"http://www.wachaucamping-rossatz.at/?setLanguage=EN 
 +43 676 8488 14800"
camping,39.17763,-0.24433,Camping Bungalows Santa Marta,"http://www.santamartacamping.com/?lang=en 
 +34 961 721 440"
camping,40.907383,25.433241,Kryoneri Campsite,"http://www.kryonericamping.gr 
 +30 2533 061133"
camping,46.298,7.87278,Campingplatz Mühleye,"http://www.camping-visp.ch/ 
 +41 27 946 20 84"
camping,51.993,6.2565,Camping Jena,"http://www.camping-jena.nl 
 +31 314 38 14 57"
camping,56.9563,24.07838,Riga City Camping,"http://www.rigacamping.lv/ 
 +371 67065000, +371 67067519"
camping,50.85653,4.48251,3CB Camping Caravaning Club Brussels,"http://www.campingbrussels.be 
 +32 2 782 10 09"
camping,52.935115,5.404709,Camping Hindeloopen,"https://www.campinghindeloopen.nl/ 
 +31 514 521 452"
camping,52.924889,5.41023,Camping Schuilenburg,"http://www.camping-schuilenburg.nl/ 
 +31 514 521 260"
camping,52.904148,5.395468,Camping Séleantsje,"https://www.camping-seleantsje.nl/ 
 +31 514 681 395"
camping,53.17123,6.382099,Landgoedcamping Nienoord,"http://www.campingnienoord.nl/ 
 +31 594 580 898"
camping,53.16438,6.22048,Camping de Watermolen,"http://campingdewatermolen.nl 
 +31 594 659 144"
camping,53.17633,6.42329,Camping Cnossen Leekstermeer,"https://www.cnossenleekstermeer.nl/camping-in-drenthe 
 +31 594 512 073"
camping,53.22184,6.95476,De Leeuwenborg,"http://deleeuwenborg.nl/camping-chalets/ 
 +31 598 446 464"
camping,53.18901,6.99053,Camping de Bouwte,"http://www.campingdebouwte.nl/nl/ 
 +31 597 591 706"
camping,53.17758,7.04463,Camping Meerland,"http://campingmeerland.nl 
 +31 597 422 644"
camping,53.24807,6.97567,Camping de Boscamp,"http://www.campingdeboscamp.nl 
 +31 596 541 727"
camping,49.8194,6.3475,Camping Belle-Vue 2000,"http://www.campingbelle-vue2000.com 
 +352 79 06 35"
camping,49.5436,6.37271,Camping Mosella am Rothaus,"http://www.camping-mosella.de/ 
 +49 6866 510"
camping,49.8393,6.2893,Camping Plage,"http://www.campingplage.lu 
 +352 83 60 99 300"
camping,52.939,7.093,Camping De Papaver,"http://www.campingdepapaver.nl/ 
 +31 599 324 274"
camping,53.0243,7.1382,Mini-camping de T-Tuin,"http://det-tuin.nl/ 
 +31 599 354 939"
camping,53.0458,7.0976,Camping Boerenbont,"http://www.campingboerenbont.nl/ 
 +31 6 5383 9935"
camping,54.440399,12.660756,Zum Deichgraf,"https://www.camping-zingst.de/en/gastronomy/zum-deichgrafen 
 +49 38232 80186"
camping,59.96291,10.64183,Bogstad Camping,"http://bogstadcamping.no/ 
 +47 22 51 08 00"
camping,59.89835,10.77444,Ekeberg Camping,"http://www.ekebergcamping.no/ 
 +47 22 19 85 68"
camping,49.24776,18.98721,Camping Belá - Nižné Kamence,"http://www.campingbela.eu/ 
 +421 415695135"
camping,51.948733,6.773935,Camping Renskers,"https://www.camping-renskers.nl/ 
 +31 543 563 293"
camping,51.932736,6.740624,Minicamping Tönsmanshoeve,"https://www.tonsmanshoeve.nl/ 
 +31 543 564 457"
camping,51.908827,6.724117,camping De Harmienehoeve,"https://www.campingdeharmienehoeve.nl/ 
 +31 543 564 393"
camping,51.8736,6.11587,Camping De Boschhof,"http://www.campingdeboschhof.nl 
 +31 316 542 001"
camping,51.95399,6.18568,Het Jagershuis,"http://www.campinghetjagershuis.nl 
 +31 314 680 990"
camping,48.24251,15.33999,Donaucamping Emmersdorf,"http://www.emmersdorf.gv.at/Donaucamping 
 +43 2752 717 07"
camping,39.56639,-120.59917,Wild Plum Campground,"https://www.recreation.gov/camping/wild-plum/r/campgroundDetails.do?contractCode=NRSO&parkId=75434 
  "
camping,39.39628,-0.33312,Camping Coll Vert,"http://www.collvertcamping.com/en/ 
 +34 961 830 036"
camping,39.38781,-0.33297,Camping Valencia El Saler,"http://www.campingvalenciaelsaler.com/index.php/en/ 
 +34 961 830 212"
camping,56.718886,11.520678,Anholt Camping,"http://www.anholtcamping.dk/ 
 +45 86 31 91 00"
camping,49.702788,9.252802,Campingplatz Mainwiese,"http://www.campingplatz-miltenberg.de/ 
 +49 9371 3985"
camping,47.7325,0.574,Camping du Vieux Moulin,"https://www.camping-duvieuxmoulin.com 
 +33 243 44 41 18"
camping,57.29245,-6.17533,Sligachan Campsite,"http://www.sligachan.co.uk/camping/ 
 +44 7786 435294"
camping,39.426483,-82.552296,Hocking Hills State Park Cabins,"https://ohiostateparks.reserveamerica.com/camping/hocking-hills-state-park/r/campgroundDetails.do?contractCode=OH&parkId=960009 
 +1-866-644-6727"
camping,39.432839,-82.538397,Old Man's Cave Campground,"https://ohiostateparks.reserveamerica.com/camping/hocking-hills-state-park/r/campgroundDetails.do?contractCode=OH&parkId=960009 
 +1-866-644-6727"
camping,39.436198,-82.526669,Hocking Hills Family Hike-In Campground,"https://ohiostateparks.reserveamerica.com/camping/hocking-hills-state-park/r/campgroundDetails.do?contractCode=OH&parkId=960009 
 +1-866-644-6727"
camping,48.437561,-53.362763,Lockston Path Provincial Park,"https://www.nlcamping.ca/LockstonPath?List 
 +1 709-464-3553"
camping,49.5102,6.3639,Port de Schwebsange,"http://www.camping-port.lu/ 
  "
camping,49.71654,6.50383,Camping Schützwiese,"http://www.camping-wasserbillig.lu 
 +352 74 05 43"
camping,28.4913,-11.3379,Camping Equinox Tan Tan,"http://campingequinox.com 
  "
camping,23.90053333,-15.78648333,Unofficial camping site,"  
  "
camping,50.11931,6.003,Camping Walensbongert Troisvierges,"https://www.camping-troisvierges.lu/en/ 
 +352 99 71 41"
camping,45.06201,6.86816,Camping Gran Bosco,"https://www.campinggranbosco.it 
 +39 0122 854653"
camping,52.3116,6.6143,Minicamping 't Oelenreef,"http://www.oelenreef.nl 
 +31 627 21 00 29"
camping,57.8898,19.091,Solhaga Camping,"http://www.solhagacamping.org 
 +46 70-681 56 64"
camping,10.23079,123.73472,Rainwater Picnic & Camping Resort,"https://www.facebook.com/picnicandcampingsite 
 +63 927 916 1877"
camping,46.698,10.0862,Camping CUL,"https://camping-cul.com/ 
  "
camping,48.69294,18.91348,Caravan camping,"  
 +421 456742857"
camping,49.78132,5.061454,Moulin de la Falize,"  
 +32 497 19 78 84"
camping,40.2212,0.26726,Camping Playa Tropicana,"http://www.campingplayatropicana.com/?lang=EN 
 +34 964 412 463"
camping,40.27002,0.30762,Ribamar Camping & Bungalows,"http://campingribamar.com/en/ 
 +34 964 761 601"
camping,38.68605,0.11912,Camping Moraira,"http://campingmoraira.com/ 
 +34 965 745 249"
camping,46.096,-122.972,Trojan Park,"https://www.portlandgeneral.com/corporate-responsibility/environmental-stewardship/water-quality-habitat-protection/parks-campgrounds/trojan-park 
 +1 503 556-7076"
camping,54.1395,8.8411,"Campingplatz ""Zur Perle""","http://www.campingplatz-zur-perle.de/ 
 +49 4834 9621180"
camping,54.1378,8.8427,Camping Nordsee,"http://www.camping-nordsee.de/ 
 +49 4834 9621170"
camping,54.13535,8.91899,Campingplatz Seeschwalbe,"http://www.campingseeschwalbe.de/ 
 +49 4834 8438"
camping,54.15152,8.82694,"Camping ""An de Waterkant""","http://camping-waterkant.de/ 
 +49 4834 8269"
camping,54.1573,8.8355,"Camping ""In Lee""","http://www.campingplatz-in-lee.de/ 
 +49 4834 8197"
camping,40.9592,24.5166,Camping Nea Karvali,"http://www.campingalexandros.com/ 
  "
camping,42.1063043,3.1581886,Camping Punta Milà,"http://www.campingpuntamila.com 
 +34638652712"
camping,49.08105,10.333411,"DCC Camping Park ""Romantic Road""","http://campingplatz-dinkelsbuehl.de 
 +49 9851 7817"
camping,52.3601,12.9449,Blütencamping Riegelspitze,"http://www.campingplatz-riegelspitze.de/ 
 +49 3327 42397"
camping,48.006718,-106.428098,Fort Peck Downstream Campground,"https://www.recreation.gov/camping/campgrounds/233489 
 +1 406 526-3224"
camping,60.001051,-116.977422,60th Parallel Territorial Park,"https://nwtparks.ca/campgrounds/60th-parallel-territorial-park 
  "
camping,60.52,-116.22,Twin Falls Gorge Territorial Park,"https://nwtparks.ca/campgrounds/twin-falls-gorge-louise-falls-campground 
  "
camping,50.912767,-114.636748,Gooseberry Campground,"https://www.albertaparks.ca/parks/kananaskis/gooseberry-pra/information-facilities/camping/gooseberry/ 
 +1-403-949-3132"
camping,50.796882,-114.851675,Little Elbow Campground,"https://www.albertaparks.ca/parks/kananaskis/little-elbow-pra/information-facilities/camping/little-elbow/ 
 +1-403-949-3132"
camping,50.889809,-114.67937,McLean Creek Campground,"https://www.albertaparks.ca/parks/kananaskis/mclean-creek-pra/information-facilities/camping/mclean-creek/ 
 +1-403-949-3132"
camping,34.4498175,-92.1126445,Tar Camp Park,"https://www.recreation.gov/camping/campgrounds/232717 
 +1 501 397-5101"
camping,34.4441325,-92.1126445,Tar Camp Park,"https://www.recreation.gov/camping/campgrounds/232717 
 +1 501 397-5101"
camping,46.55268,17.12592,Termál Camping,"https://www.balatontourist.hu/en/campsites-campings-accommodations-at-lake-balaton/termal 
 +36 93 340-105"
camping,59.8247,21.5804,Moringharu camping site,"  
  "
camping,46.9777,10.1271,Zeinissee camping,"http://www.camping-galtuer.at/ 
 +43 5443 8562"
camping,52.968853,5.414428,Camping It Soal,"https://www.itsoal.nl/en/ 
 +31 515 541 443"
camping,52.8418,-104.5963,Melfort Campground,"http://www.cityofmelfort.ca/p/campgrounds 
 +1 306-752-7638"
camping,51.069088,-113.865047,Mountain View Camping,"http://www.calgarycamping.com/ 
 +1 403-293-6640"
camping,51.223123,-114.002504,Balzac Campground R.V. Park and Storage,"http://www.balzaccampground.com/ 
 +1 403-226-0097"
camping,51.083922,-114.352821,Calaway Park RV Park and Campground,"https://www.calawaypark.com/campground/ 
  "
camping,51.085016,-114.23424,Calgary West Campground,"http://www.calgarycampground.com/ 
 +1 403-288-0411"
camping,47.5745,19.0519,Római Camping,"http://romaicamping.hu/en 
 +36 1 250-0426"
camping,40.7532121,-104.9840812,Fort Collins North/Wellington KOA Journey,"https://koa.com/campgrounds/fort-collins-north/ 
 +1 970 568-7486"
camping,40.6146979,-105.1088619,Fort Collins Lakeside KOA Grounds,"https://koa.com/campgrounds/fort-collins-lakeside/ 
  "
camping,47.475833,19.082916,Haller Camping,"http://www.hallercamping.hu 
 +36 30 231 0923"
camping,50.261527,-99.820339,Minnedosa Campground,"http://www.discoverminnedosa.com/visiting/things-to-do/camping/ 
 +1 204-867-3450"
camping,-30.5680703,150.9144097,Warrabah National Park,"https://www.nationalparks.nsw.gov.au/camping-and-accommodation/campgrounds/warrabah-campground-and-picnic-area/visitor-info#Facilities 
  "
camping,-30.312526,150.435541,Little Creek Reserve,"https://caravanontour.com/free-campsites-and-low-cost-camping/new-south-wales/rest-area-and-places-to-pull-over-when-tired/2302-little-creek-reserve-picnic-rest-area.html 
  "
camping,60.1872,21.4375,Kittuis Camping & Caravan,"https://www.facebook.com/pages/Kittuis-camping-caravan/332322270683148 
 +358 440-53-4100"
camping,47.43149,18.90103,Fortuna Beach,"https://www.facebook.com/fortunabeach77/ 
 +36 70 589-9091"
camping,47.43227,18.90101,Fortuna Camping,"http://fortuna-camping.hu/ 
 +36 70 589-9091"
camping,47.46969,18.81751,Margaréta-Bia Guesthouse and Camping,"http://www.biacamping.hu/ 
 +36 30 212-6868"
camping,46.405412,-63.172845,Vacationland RV Park & Family Campground,"https://www.vacationlandrvcampground.com/ 
 +1 902-672-2317"
camping,47.43276,11.73472,Seecamping Wimmer,"https://www.achensee-camping.at/ 
 +43 5243 20238"
camping,47.42085,11.74081,Karwendel Camping,"http://www.karwendel-camping.at/ 
 +43 5243 6116"
camping,56.654202,9.975153,Mariager Camping,"https://www.mariagercamping.dk 
 +45 51951342"
camping,46.7506,17.34987,Carina Camping,"http://carinacamping.hu/en-index.html 
 +36 83 349-084"
camping,46.75154,17.3336,Balatontourist Camping and Bungalows Park,"https://www.balatontourist.hu/en/campsites-campings-accommodations-at-lake-balaton/park 
 +36 83 348-044"
camping,56.824999,10.269659,Kattegat Strand Camping,"http://www.kattegatstrandcamping.dk/en 
 +45 98588032"
camping,50.96388,-108.76636,Eston Riverside Regional Park Camping,"https://saskregionalparks.ca/park/eston-riverside 
 +1 306-402-8002"
camping,48.33281,21.58232,Tengerszem Holiday Park and Camping,"http://tengerszem-camping.hu/ 
 +36 47 312-744"
camping,53.584251,-114.998908,Entwistle RV Campground,"http://www.entwistlervcampground.ca/index.html 
 +1 780-719-9009"
camping,60.2231,20.7348,Ledholm Camping,"http://home.aland.net/ledholmcamping/ 
 +358 40 589 2005"
camping,47.50426,19.15826,Arena Camping,"http://arenacamping.eu/en 
 +36 30 296-9129"
camping,53.70893,10.76692,Campingplatz Schwalkenberg,"http://www.campingplatz-schwalkenberg.de 
 +49 172 4117032"
camping,54.5092,9.0012,Campingplatz Seeblick,"http://www.camping-seeblick.de 
 +49 4841 3321"
camping,54.4792,9.0099,Husumer Campingplatz,"http://husum-camping.de/ 
 +49 4841 61911"
camping,51.71178,7.26334,Campingpark Flaesheim,"http://www.campingpark-flaesheim.de 
  "
camping,49.18831,11.123966,Camping Waldsee,"https://www.camping-waldsee.de/ 
 +49 9171 5570"
camping,54.014203,-132.128756,Hidden Island RV & Campground,"https://lovenorthernbc.com/community/masset/business/hidden-island-rv-campground/ 
 +1 250-626-5286"
camping,48.893375,12.575573,Campingplatz Straubing,"http://www.campingplatzstraubing.de/ 
 +49 9421 89794"
camping,47.40658,10.86979,Camping Lärchenhof,"https://www.laerchenhof-lermoos.at/en/camping/camping-lermoos/4-0.html 
 +43 56732197"
camping,36.0174,128.6202,Gasansanseong Camping Site,"http://camping.gb.go.kr/main.php 
 +82 53-602-5900"
camping,36.0212,128.3953,Chilgokbo Auto-camping Site,"http://www.chilgok.go.kr/tour/01sights/03_05.jsp 
 +82 53-602-5900"
camping,47.26407,11.90099,Camping Aufenfeld,"https://www.camping-zillertal.at/en/camping-zillertal 
 +43 5282 2916"
camping,51.386849,-113.526879,Beiseker Municipal Campground,"https://0400425.netsolhost.com/beiseker/campground/ 
 +1 403-888-9730"
camping,51.069665,-113.864288,Mountain View Calgary Camping,"http://calgarycamping.com/ 
 +1 403-293-6640"
camping,50.4092,-3.91356,Harford Bunkhouse camping site,"https://www.harfordbunkhouse.co.uk 
 +44 1752 691 883"
camping,51.49942,13.98293,Komfortcamping Senftenberger See,"https://www.senftenberger-see.de/de/komfortcamping.html 
 +49 03573 800500"
camping,50.924,-1.812,Amy's Camping,"https://amys-camping-fordingbridge.business.site/ 
 +44 7717 313 663"
camping,52.639014,-105.438323,Shannon Lake Campground,"http://www.shopsaskatchewan.com/wakaw/shannon_lake_campground.htm 
 +1 306-233-4714"
